{
    "type": "FeatureCollection",
    "features": [
        {
            "type": "Feature",
            "properties": {
                "id": "0111070010",
                "name": "衛生福利部基隆醫院",
                "phone": "02 -24292525",
                "address": "基隆市信義區信二路268號",
                "service_periods": "NNNNNNYNNNNNYYNNNNNYY"
            },
            "geometry": {
                "type": "Point",
                "coordinates": [
                    121.748322,
                    25.130455
                ]
            }
        },
        {
            "type": "Feature",
            "properties": {
                "id": "1111060015",
                "name": "長庚醫療財團法人基隆長庚紀念醫院",
                "phone": "02 -24313131",
                "address": "基隆市安樂區麥金路222號",
                "service_periods": "NNNNNNYNNNNNYYNNNNNYY"
            },
            "geometry": {
                "type": "Point",
                "coordinates": [
                    121.722368,
                    25.120882
                ]
            }
        },
        {
            "type": "Feature",
            "properties": {
                "id": "0131020016",
                "name": "新北市立聯合醫院(三重)",
                "phone": "02 -29829111",
                "address": "新北市三重區新北大道一段3號",
                "service_periods": "NNNNNNYNNNNNYYYYYYYYY"
            },
            "geometry": {
                "type": "Point",
                "coordinates": [
                    121.49084,
                    25.060869
                ]
            }
        },
        {
            "type": "Feature",
            "properties": {
                "id": "0131060010",
                "name": "衛生福利部樂生療養院",
                "phone": "02 -82006600",
                "address": "新北市新莊區中正路794號",
                "service_periods": "NNNNNNYNNNNNYYNNNNNYY"
            },
            "geometry": {
                "type": "Point",
                "coordinates": [
                    121.409851,
                    25.021622
                ]
            }
        },
        {
            "type": "Feature",
            "properties": {
                "id": "0131060029",
                "name": "衛生福利部臺北醫院",
                "phone": "02 -22765566",
                "address": "新北市新莊區思源路127號",
                "service_periods": "NNNNNYYNNNNNYYNNNNNYY"
            },
            "geometry": {
                "type": "Point",
                "coordinates": [
                    121.459622,
                    25.04324
                ]
            }
        },
        {
            "type": "Feature",
            "properties": {
                "id": "0431270012",
                "name": "國立臺灣大學醫學院附設醫院金山分院",
                "phone": "02 -24989898",
                "address": "新北市金山區五湖里玉爐路7號",
                "service_periods": "NNNNNYYNNNNNYYYYYYNYY"
            },
            "geometry": {
                "type": "Point",
                "coordinates": [
                    121.628344,
                    25.219469
                ]
            }
        },
        {
            "type": "Feature",
            "properties": {
                "id": "1131010011",
                "name": "醫療財團法人徐元智先生醫藥基金會亞東紀念醫院",
                "phone": "02 -89667000",
                "address": "新北市板橋區南雅南路2段21號",
                "service_periods": "NNNNNNYNNNNNYYNNNNNYY"
            },
            "geometry": {
                "type": "Point",
                "coordinates": [
                    121.452312,
                    24.997312
                ]
            }
        },
        {
            "type": "Feature",
            "properties": {
                "id": "1131050515",
                "name": "佛教慈濟醫療財團法人台北慈濟醫院",
                "phone": "02 -66289779",
                "address": "新北市新店區建國路289號",
                "service_periods": "NNNNNNYNNNNNYYNNNNNYY"
            },
            "geometry": {
                "type": "Point",
                "coordinates": [
                    121.535808,
                    24.98578
                ]
            }
        },
        {
            "type": "Feature",
            "properties": {
                "id": "1131090019",
                "name": "行天宮醫療志業醫療財團法人恩主公醫院",
                "phone": "02 -26723456",
                "address": "新北市三峽區復興路399號",
                "service_periods": "NNNNNNYNNNNNYYNNNNNYY"
            },
            "geometry": {
                "type": "Point",
                "coordinates": [
                    121.363007,
                    24.938385
                ]
            }
        },
        {
            "type": "Feature",
            "properties": {
                "id": "1131100010",
                "name": "台灣基督長老教會馬偕醫療財團法人淡水馬偕紀念醫院",
                "phone": "02 -28094661",
                "address": "新北市淡水區民生路45號",
                "service_periods": "NNNNNNYNNNNNYYYYYYYYY"
            },
            "geometry": {
                "type": "Point",
                "coordinates": [
                    121.460499,
                    25.139534
                ]
            }
        },
        {
            "type": "Feature",
            "properties": {
                "id": "1131110516",
                "name": "國泰醫療財團法人汐止國泰綜合醫院",
                "phone": "02 -26482121",
                "address": "新北市汐止區建成路59巷2號",
                "service_periods": "NNNNNNYNNNNNYYNNNNNYY"
            },
            "geometry": {
                "type": "Point",
                "coordinates": [
                    121.661084,
                    25.072872
                ]
            }
        },
        {
            "type": "Feature",
            "properties": {
                "id": "1131130018",
                "name": "新北市立土城醫院(委託長庚醫療財團法人興建經營)",
                "phone": "02 -22630588",
                "address": "新北市土城區金城路2段6號",
                "service_periods": "NNNNNNYNNNNNNYNNNNNYY"
            },
            "geometry": {
                "type": "Point",
                "coordinates": [
                    121.44873,
                    24.976437
                ]
            }
        },
        {
            "type": "Feature",
            "properties": {
                "id": "1231050017",
                "name": "天主教耕莘醫療財團法人耕莘醫院",
                "phone": "02 -22193391",
                "address": "新北市新店區中正路362號",
                "service_periods": "NNNNNNYNNNNNYYNNNNNYY"
            },
            "geometry": {
                "type": "Point",
                "coordinates": [
                    121.535619,
                    24.976084
                ]
            }
        },
        {
            "type": "Feature",
            "properties": {
                "id": "1331040513",
                "name": "衛生福利部雙和醫院(委託臺北醫學大學興建經營)",
                "phone": "02 -22490088",
                "address": "新北市中和區中正路291號",
                "service_periods": "NNNNNNYNNNNNYYNNNNNYY"
            },
            "geometry": {
                "type": "Point",
                "coordinates": [
                    121.494082,
                    24.993746
                ]
            }
        },
        {
            "type": "Feature",
            "properties": {
                "id": "1331160010",
                "name": "輔仁大學學校財團法人輔仁大學附設醫院",
                "phone": "02 -85128888",
                "address": "新北市泰山區貴子路69號",
                "service_periods": "NNNNNNYNNNNNYYNNNNNYY"
            },
            "geometry": {
                "type": "Point",
                "coordinates": [
                    121.430798,
                    25.039676
                ]
            }
        },
        {
            "type": "Feature",
            "properties": {
                "id": "1531120038",
                "name": "瑞芳礦工醫院",
                "phone": "02 -24974101",
                "address": "新北市瑞芳區一坑路71之2號",
                "service_periods": "NNNNNNYNNNNNYYNNNNNYY"
            },
            "geometry": {
                "type": "Point",
                "coordinates": [
                    121.80217,
                    25.108602
                ]
            }
        },
        {
            "type": "Feature",
            "properties": {
                "id": "0101090517-1",
                "name": "臺北市立聯合醫院仁愛院區",
                "phone": "02 -25553000",
                "address": "臺北市大安區仁愛路四段10號",
                "service_periods": "NNNNNNYNNNNNYYNNNNNYY"
            },
            "geometry": {
                "type": "Point",
                "coordinates": [
                    121.545302,
                    25.03754
                ]
            }
        },
        {
            "type": "Feature",
            "properties": {
                "id": "0101090517-2",
                "name": "臺北市立聯合醫院中興院區",
                "phone": "02 -25553000",
                "address": "臺北市鄭州路145號",
                "service_periods": "NNNNNNYNNNNNYYNNNNNYY"
            },
            "geometry": {
                "type": "Point",
                "coordinates": [
                    121.508887,
                    25.050692
                ]
            }
        },
        {
            "type": "Feature",
            "properties": {
                "id": "0101090517-3",
                "name": "臺北市立聯合醫院忠孝院區",
                "phone": "02 -25553000",
                "address": "臺北市南港區同德路87號",
                "service_periods": "NNNNNNYNNNNNYYNNNNNYY"
            },
            "geometry": {
                "type": "Point",
                "coordinates": [
                    121.586157,
                    25.046506
                ]
            }
        },
        {
            "type": "Feature",
            "properties": {
                "id": "0101090517-4",
                "name": "臺北市立聯合醫院陽明院區",
                "phone": "02 -25553000",
                "address": "臺北市雨聲街105號",
                "service_periods": "NNNNNNYNNNNNYYNNNNNYY"
            },
            "geometry": {
                "type": "Point",
                "coordinates": [
                    121.531566,
                    25.105194
                ]
            }
        },
        {
            "type": "Feature",
            "properties": {
                "id": "0101090517-5",
                "name": "臺北市立聯合醫院和平婦幼院區",
                "phone": "02 -25553000",
                "address": "臺北市福州街12號",
                "service_periods": "NNNNNNYNNNNNYYNNNNNYY"
            },
            "geometry": {
                "type": "Point",
                "coordinates": [
                    121.51925,
                    25.029112
                ]
            }
        },
        {
            "type": "Feature",
            "properties": {
                "id": "0401180014",
                "name": "國立台灣大學醫學院附設醫院",
                "phone": "02 -23123456",
                "address": "臺北市中正區中山南路7、8號",
                "service_periods": "NNNNNYYNNNNNYYYYYYYYY"
            },
            "geometry": {
                "type": "Point",
                "coordinates": [
                    121.516715,
                    25.037324
                ]
            }
        },
        {
            "type": "Feature",
            "properties": {
                "id": "0501110514",
                "name": "三軍總醫院附設民眾診療服務處",
                "phone": "02 -87923311",
                "address": "臺北市內湖區成功路2段325號",
                "service_periods": "NNNNNNYNNNNNYYNNNNNYY"
            },
            "geometry": {
                "type": "Point",
                "coordinates": [
                    121.591982,
                    25.0718
                ]
            }
        },
        {
            "type": "Feature",
            "properties": {
                "id": "0601160016",
                "name": "臺北榮民總醫院",
                "phone": "02 -28712121",
                "address": "臺北市北投區石牌路2段201號",
                "service_periods": "NNNNNNYNNNNNYYNNNNNYY"
            },
            "geometry": {
                "type": "Point",
                "coordinates": [
                    121.519166,
                    25.119181
                ]
            }
        },
        {
            "type": "Feature",
            "properties": {
                "id": "1101010012",
                "name": "長庚醫療財團法人台北長庚紀念醫院",
                "phone": "02 -27135211",
                "address": "臺北市松山區敦化北路199號",
                "service_periods": "NNNNNNYNNNNNNYNNNNNYY"
            },
            "geometry": {
                "type": "Point",
                "coordinates": [
                    121.549618,
                    25.055508
                ]
            }
        },
        {
            "type": "Feature",
            "properties": {
                "id": "1101020018",
                "name": "國泰醫療財團法人國泰綜合醫院",
                "phone": "02 -27082121",
                "address": "臺北市大安區仁愛路4段280號",
                "service_periods": "NNNNNNYNNNNNYYNNNNNYY"
            },
            "geometry": {
                "type": "Point",
                "coordinates": [
                    121.553693,
                    25.036942
                ]
            }
        },
        {
            "type": "Feature",
            "properties": {
                "id": "1101100011",
                "name": "台灣基督長老教會馬偕醫療財團法人馬偕紀念醫院",
                "phone": "02 -25433535",
                "address": "臺北市中山區中山北路2段92號",
                "service_periods": "NNNNNNYNNNNNYYNNNNNYY"
            },
            "geometry": {
                "type": "Point",
                "coordinates": [
                    121.522558,
                    25.058883
                ]
            }
        },
        {
            "type": "Feature",
            "properties": {
                "id": "0132010014",
                "name": "衛生福利部桃園醫院",
                "phone": "03 -3699721",
                "address": "桃園市桃園區中山路1492號",
                "service_periods": "NNNNNNYNNNNNYYNNNNNYY"
            },
            "geometry": {
                "type": "Point",
                "coordinates": [
                    121.268092,
                    24.977705
                ]
            }
        },
        {
            "type": "Feature",
            "properties": {
                "id": "0132110519",
                "name": "衛生福利部桃園醫院新屋分院",
                "phone": "03 -4971989",
                "address": "桃園市新屋區新屋村14鄰新福二路6號",
                "service_periods": "NNNNNNYNNNNNYYNNNNNYY"
            },
            "geometry": {
                "type": "Point",
                "coordinates": [
                    121.107189,
                    24.969856
                ]
            }
        },
        {
            "type": "Feature",
            "properties": {
                "id": "0532090029",
                "name": "國軍桃園總醫院附設民眾診療服務處",
                "phone": "03 -4799595",
                "address": "桃園市龍潭區中興里中興路168號",
                "service_periods": "NNNNNNYNNNNNYYYYNYYYY"
            },
            "geometry": {
                "type": "Point",
                "coordinates": [
                    121.234977,
                    24.874464
                ]
            }
        },
        {
            "type": "Feature",
            "properties": {
                "id": "0632010014",
                "name": "臺北榮民總醫院桃園分院",
                "phone": "03 -3384889",
                "address": "桃園市桃園區成功路三段100號",
                "service_periods": "NNNNNNYNNNNNYYNNNNNYY"
            },
            "geometry": {
                "type": "Point",
                "coordinates": [
                    121.325315,
                    25.003741
                ]
            }
        },
        {
            "type": "Feature",
            "properties": {
                "id": "0932020025",
                "name": "天成醫療社團法人天晟醫院",
                "phone": "03 -4629292",
                "address": "桃園市中壢區延平路155號",
                "service_periods": "NNNNNNYNNNNNYYNNNNNYY"
            },
            "geometry": {
                "type": "Point",
                "coordinates": [
                    121.229069,
                    24.962598
                ]
            }
        },
        {
            "type": "Feature",
            "properties": {
                "id": "1132010024",
                "name": "沙爾德聖保祿修女會醫療財團法人聖保祿醫院",
                "phone": "03 -3613141",
                "address": "桃園市桃園區建新街123號",
                "service_periods": "NNNNNNYNNNNNYYNNNNNYY"
            },
            "geometry": {
                "type": "Point",
                "coordinates": [
                    121.312507,
                    24.982115
                ]
            }
        },
        {
            "type": "Feature",
            "properties": {
                "id": "1132070011",
                "name": "長庚醫療財團法人林口長庚紀念醫院",
                "phone": "03 -3281200",
                "address": "桃園市龜山區公西里復興街5號",
                "service_periods": "NNNNNNYNNNNNNYNNNNNYY"
            },
            "geometry": {
                "type": "Point",
                "coordinates": [
                    121.367919,
                    25.060298
                ]
            }
        },
        {
            "type": "Feature",
            "properties": {
                "id": "1532011154",
                "name": "敏盛綜合醫院",
                "phone": "03 -3179599",
                "address": "桃園市桃園區經國路168號",
                "service_periods": "NNNNNNYNNNNNYYNNNNNYY"
            },
            "geometry": {
                "type": "Point",
                "coordinates": [
                    121.306174,
                    25.016313
                ]
            }
        },
        {
            "type": "Feature",
            "properties": {
                "id": "1532040039",
                "name": "天成醫院",
                "phone": "03 -4782350",
                "address": "桃園市楊梅區新成路196號",
                "service_periods": "NNNNNNYNNNNNYYNNNNNYY"
            },
            "geometry": {
                "type": "Point",
                "coordinates": [
                    121.146863,
                    24.90837
                ]
            }
        },
        {
            "type": "Feature",
            "properties": {
                "id": "1532040066",
                "name": "怡仁綜合醫院",
                "phone": "03 -4855566",
                "address": "桃園市楊梅區楊新北路321巷30號",
                "service_periods": "NNNNNNNNNNNNNYNNNNNNY"
            },
            "geometry": {
                "type": "Point",
                "coordinates": [
                    121.155427,
                    24.916951
                ]
            }
        },
        {
            "type": "Feature",
            "properties": {
                "id": "1532100049",
                "name": "聯新國際醫院",
                "phone": "03 -4941234",
                "address": "桃園市平鎮區廣泰路77號",
                "service_periods": "NNNNNNYNNNNNYYNNNNNYY"
            },
            "geometry": {
                "type": "Point",
                "coordinates": [
                    121.20496,
                    24.94612
                ]
            }
        },
        {
            "type": "Feature",
            "properties": {
                "id": "0933050018",
                "name": "東元醫療社團法人東元綜合醫院",
                "phone": "03 -5527000",
                "address": "新竹縣竹北市縣政二路69號",
                "service_periods": "NNNNNNNNNNNNNNNNNNNNN"
            },
            "geometry": {
                "type": "Point",
                "coordinates": [
                    121.013955,
                    24.823761
                ]
            }
        },
        {
            "type": "Feature",
            "properties": {
                "id": "1133060019",
                "name": "天主教仁慈醫療財團法人仁慈醫院",
                "phone": "03 -5993500",
                "address": "新竹縣湖口鄉孝勢村忠孝路29號",
                "service_periods": "NNNNNNNNNNNNYYNNNNNYY"
            },
            "geometry": {
                "type": "Point",
                "coordinates": [
                    121.045458,
                    24.900558
                ]
            }
        },
        {
            "type": "Feature",
            "properties": {
                "id": "0412040012",
                "name": "國立臺灣大學醫學院附設醫院新竹臺大分院新竹醫院",
                "phone": "03 -5326151",
                "address": "新竹市北區金華里經國路一段442巷25號",
                "service_periods": "NNNNNNYNNNNNYYYNYNYYY"
            },
            "geometry": {
                "type": "Point",
                "coordinates": [
                    120.97992,
                    24.816707
                ]
            }
        },
        {
            "type": "Feature",
            "properties": {
                "id": "0135010016",
                "name": "衛生福利部苗栗醫院",
                "phone": "037-261920",
                "address": "苗栗縣苗栗市為公路747號",
                "service_periods": "NNNNNNYNNNNNYYNNNNYYY"
            },
            "geometry": {
                "type": "Point",
                "coordinates": [
                    120.840405,
                    24.575655
                ]
            }
        },
        {
            "type": "Feature",
            "properties": {
                "id": "0935020027",
                "name": "李綜合醫療社團法人苑裡李綜合醫院",
                "phone": "037-862387",
                "address": "苗栗縣苑裡鎮和平路168號",
                "service_periods": "NNNNNNNNNNNNYYNNNNNYY"
            },
            "geometry": {
                "type": "Point",
                "coordinates": [
                    120.65272,
                    24.44182
                ]
            }
        },
        {
            "type": "Feature",
            "properties": {
                "id": "1135050020",
                "name": "為恭醫療財團法人為恭紀念醫院",
                "phone": "037-676811",
                "address": "苗栗縣頭份市信義路128號",
                "service_periods": "NNNNNNYNNNNNYYNNNNNYY"
            },
            "geometry": {
                "type": "Point",
                "coordinates": [
                    120.907345,
                    24.687096
                ]
            }
        },
        {
            "type": "Feature",
            "properties": {
                "id": "1535031041",
                "name": "通霄光田醫院",
                "phone": "037-759999",
                "address": "苗栗縣通霄鎮中山路88號",
                "service_periods": "NNNNNNNNNNNNNYNNNNNYY"
            },
            "geometry": {
                "type": "Point",
                "coordinates": [
                    120.678377,
                    24.489
                ]
            }
        },
        {
            "type": "Feature",
            "properties": {
                "id": "0117030010",
                "name": "衛生福利部臺中醫院",
                "phone": "04 -22294411",
                "address": "臺中市西區三民路一段199號",
                "service_periods": "NNNNNNYNNNNNYYNNNNNYY"
            },
            "geometry": {
                "type": "Point",
                "coordinates": [
                    120.675711,
                    24.140225
                ]
            }
        },
        {
            "type": "Feature",
            "properties": {
                "id": "0136010010",
                "name": "衛生福利部豐原醫院",
                "phone": "04 -25271180",
                "address": "臺中市豐原區安康路100號",
                "service_periods": "NNNNNNNNNNNNNNNNNNNNN"
            },
            "geometry": {
                "type": "Point",
                "coordinates": [
                    120.725292,
                    24.242706
                ]
            }
        },
        {
            "type": "Feature",
            "properties": {
                "id": "0517050010",
                "name": "國軍臺中總醫院中清分院附設民眾診療服務處",
                "phone": "04 -22037320",
                "address": "臺中市北區忠明路500號",
                "service_periods": "NNNNNNYNNNNNYYNNNNNYY"
            },
            "geometry": {
                "type": "Point",
                "coordinates": [
                    120.672231,
                    24.162282
                ]
            }
        },
        {
            "type": "Feature",
            "properties": {
                "id": "49733093",
                "name": "國軍臺中總醫院附設民眾診療服務處",
                "phone": "04 -22037320",
                "address": "臺中市太平區中山路二段348號",
                "service_periods": "NNNNNNYNNNNNYYNNNNNYY"
            },
            "geometry": {
                "type": "Point",
                "coordinates": [
                    120.730101,
                    24.150814
                ]
            }
        },
        {
            "type": "Feature",
            "properties": {
                "id": "0617060018",
                "name": "臺中榮民總醫院",
                "phone": "04 -23592525",
                "address": "臺中市西屯區臺灣大道4段 1650號",
                "service_periods": "NNNNNNYNNNNNYYNNNNNYY"
            },
            "geometry": {
                "type": "Point",
                "coordinates": [
                    120.604647,
                    24.184298
                ]
            }
        },
        {
            "type": "Feature",
            "properties": {
                "id": "0917070029",
                "name": "林新醫療社團法人林新醫院",
                "phone": "04 -22586688",
                "address": "臺中市南屯區惠中路3段36號",
                "service_periods": "NNNNNNYNNNNNYYNNNNNYY"
            },
            "geometry": {
                "type": "Point",
                "coordinates": [
                    120.640201,
                    24.149037
                ]
            }
        },
        {
            "type": "Feature",
            "properties": {
                "id": "0936030018",
                "name": "李綜合醫療社團法人大甲李綜合醫院",
                "phone": "04 -26862288",
                "address": "臺中市大甲區八德街2號",
                "service_periods": "NNNNNNNNNNNNYYNNNNNYY"
            },
            "geometry": {
                "type": "Point",
                "coordinates": [
                    120.618073,
                    24.350784
                ]
            }
        },
        {
            "type": "Feature",
            "properties": {
                "id": "0936050029-1",
                "name": "光田醫療社團法人光田綜合醫院沙鹿總院",
                "phone": "04 -26625111",
                "address": "台中市沙鹿區沙田路117號",
                "service_periods": "NNNNNNYNNNNNYYNNNNNYY"
            },
            "geometry": {
                "type": "Point",
                "coordinates": [
                    120.558859,
                    24.235393
                ]
            }
        },
        {
            "type": "Feature",
            "properties": {
                "id": "0936060016",
                "name": "童綜合醫療社團法人童綜合醫院",
                "phone": "04 -26581919",
                "address": "臺中市梧棲區臺灣大道八段699號",
                "service_periods": "NNNNNNYNNNNNYYNNNNNYY"
            },
            "geometry": {
                "type": "Point",
                "coordinates": [
                    120.542506,
                    24.247285
                ]
            }
        },
        {
            "type": "Feature",
            "properties": {
                "id": "1136090519",
                "name": "佛教慈濟醫療財團法人台中慈濟醫院",
                "phone": "04 -36060666",
                "address": "臺中市潭子區豐興路1段66、88號",
                "service_periods": "NNNNNNYNNNNNYYNNNNNYY"
            },
            "geometry": {
                "type": "Point",
                "coordinates": [
                    120.722927,
                    24.203641
                ]
            }
        },
        {
            "type": "Feature",
            "properties": {
                "id": "1136200015",
                "name": "仁愛醫療財團法人大里仁愛醫院",
                "phone": "04 -24819900",
                "address": "臺中市大里區東榮路483號",
                "service_periods": "NNNNNNYNNNNNYYNNNNNYY"
            },
            "geometry": {
                "type": "Point",
                "coordinates": [
                    120.680434,
                    24.109261
                ]
            }
        },
        {
            "type": "Feature",
            "properties": {
                "id": "1303180011",
                "name": "亞洲大學附屬醫院",
                "phone": "04 -37061668",
                "address": "臺中市霧峰區福新路222號",
                "service_periods": "NNNNNNYNNNNNYYNNNNNYY"
            },
            "geometry": {
                "type": "Point",
                "coordinates": [
                    120.68617,
                    24.053561
                ]
            }
        },
        {
            "type": "Feature",
            "properties": {
                "id": "1317040011",
                "name": "中山醫學大學附設醫院",
                "phone": "04 -24739595",
                "address": "臺中市南區建國北路一段110號",
                "service_periods": "NNNNNNYNNNNNYYNNNNNYY"
            },
            "geometry": {
                "type": "Point",
                "coordinates": [
                    120.6499,
                    24.121753
                ]
            }
        },
        {
            "type": "Feature",
            "properties": {
                "id": "1317050017",
                "name": "中國醫藥大學附設醫院",
                "phone": "04 -22052121",
                "address": "臺中市北區育德路2號",
                "service_periods": "NNNNNNYNNNNNNYNNNNNYY"
            },
            "geometry": {
                "type": "Point",
                "coordinates": [
                    120.680532,
                    24.15773
                ]
            }
        },
        {
            "type": "Feature",
            "properties": {
                "id": "1517011112",
                "name": "澄清綜合醫院",
                "phone": "04 -24632000",
                "address": "臺中市中區平等街139號",
                "service_periods": "NNNNNNYNNNNNYYNNNNNYY"
            },
            "geometry": {
                "type": "Point",
                "coordinates": [
                    120.68161,
                    24.142603
                ]
            }
        },
        {
            "type": "Feature",
            "properties": {
                "id": "1517061032",
                "name": "澄清綜合醫院中港分院",
                "phone": "04 -24632000",
                "address": "臺中市西屯區臺灣大道4段966號",
                "service_periods": "NNNNNNYNNNNNYYNNNNNYY"
            },
            "geometry": {
                "type": "Point",
                "coordinates": [
                    120.617033,
                    24.182853
                ]
            }
        },
        {
            "type": "Feature",
            "properties": {
                "id": "0936050029-2",
                "name": "光田醫療社團法人光田綜合醫院大甲院區",
                "phone": "04 -26625111",
                "address": "台中市大甲區經國路321號",
                "service_periods": "NNNNNNYNNNNNYYNNNNNYY"
            },
            "geometry": {
                "type": "Point",
                "coordinates": [
                    120.616657,
                    24.346578
                ]
            }
        },
        {
            "type": "Feature",
            "properties": {
                "id": "1536100081",
                "name": "清泉醫院",
                "phone": "04 -25605600",
                "address": "臺中市大雅區三和里雅潭路四段80號",
                "service_periods": "NNNNNNNNNNNNYYNNNNNYY"
            },
            "geometry": {
                "type": "Point",
                "coordinates": [
                    120.666466,
                    24.216943
                ]
            }
        },
        {
            "type": "Feature",
            "properties": {
                "id": "0137170515",
                "name": "衛生福利部彰化醫院",
                "phone": "04 -8298686",
                "address": "彰化縣埔心鄉舊館村中正路二段80號",
                "service_periods": "NNNNNNYNNNNNYYNNNNNYY"
            },
            "geometry": {
                "type": "Point",
                "coordinates": [
                    120.527299,
                    23.950225
                ]
            }
        },
        {
            "type": "Feature",
            "properties": {
                "id": "0937010019",
                "name": "秀傳醫療社團法人秀傳紀念醫院",
                "phone": "04 -7256166",
                "address": "彰化縣彰化市南瑤里中山路1段542號",
                "service_periods": "NNNNNNNNNNNNNYNNNNNYY"
            },
            "geometry": {
                "type": "Point",
                "coordinates": [
                    120.537508,
                    24.064786
                ]
            }
        },
        {
            "type": "Feature",
            "properties": {
                "id": "0937030012",
                "name": "道周醫療社團法人道周醫院",
                "phone": "04 -7566995",
                "address": "彰化縣和美鎮和光路180號",
                "service_periods": "NNNNNNNNNNNNNYNNNNNNY"
            },
            "geometry": {
                "type": "Point",
                "coordinates": [
                    120.491865,
                    24.110572
                ]
            }
        },
        {
            "type": "Feature",
            "properties": {
                "id": "1137010024",
                "name": "彰化基督教醫療財團法人彰化基督教醫院",
                "phone": "04 -7238595",
                "address": "彰化縣彰化市南校街135號",
                "service_periods": "NNNNNNYNNNNNYYNNNNNYY"
            },
            "geometry": {
                "type": "Point",
                "coordinates": [
                    120.544461,
                    24.07149
                ]
            }
        },
        {
            "type": "Feature",
            "properties": {
                "id": "1137020511",
                "name": "秀傳醫療財團法人彰濱秀傳紀念醫院",
                "phone": "04 -7813888",
                "address": "彰化縣鹿港鎮鹿工路6號",
                "service_periods": "NNNNNNYNNNNNNYNNNNNYY"
            },
            "geometry": {
                "type": "Point",
                "coordinates": [
                    120.41112,
                    24.078274
                ]
            }
        },
        {
            "type": "Feature",
            "properties": {
                "id": "1137050019",
                "name": "彰化基督教醫療財團法人員林基督教醫院",
                "phone": "04 -8381456",
                "address": "彰化縣員林市莒光路456號",
                "service_periods": "NNNNNNYNNNNNYYNNNNNYY"
            },
            "geometry": {
                "type": "Point",
                "coordinates": [
                    120.566953,
                    23.96275
                ]
            }
        },
        {
            "type": "Feature",
            "properties": {
                "id": "1137080017",
                "name": "彰化基督教醫療財團法人二林基督教醫院",
                "phone": "04 -8952031",
                "address": "彰化縣二林鎮南光里大成路一段558號",
                "service_periods": "NNNNNNYNNNNNYYNNNNNYY"
            },
            "geometry": {
                "type": "Point",
                "coordinates": [
                    120.363344,
                    23.893608
                ]
            }
        },
        {
            "type": "Feature",
            "properties": {
                "id": "0138010027",
                "name": "衛生福利部南投醫院",
                "phone": "049-2231150",
                "address": "南投縣南投市康壽里復興路478號",
                "service_periods": "NNNNNNYNNNNNNYNNNNNYY"
            },
            "geometry": {
                "type": "Point",
                "coordinates": [
                    120.685294,
                    23.914093
                ]
            }
        },
        {
            "type": "Feature",
            "properties": {
                "id": "0638020014",
                "name": "臺中榮民總醫院埔里分院",
                "phone": "049-2990833",
                "address": "南投縣埔里鎮蜈蚣里榮光路1號",
                "service_periods": "NNNNNNYNNNNNYYNNNNNYY"
            },
            "geometry": {
                "type": "Point",
                "coordinates": [
                    120.99681,
                    23.975802
                ]
            }
        },
        {
            "type": "Feature",
            "properties": {
                "id": "0938030016",
                "name": "佑民醫療社團法人佑民醫院",
                "phone": "049-2358151",
                "address": "南投縣草屯鎮太平路一段200號",
                "service_periods": "NNNNNNNNNNNNYYNNNNNYY"
            },
            "geometry": {
                "type": "Point",
                "coordinates": [
                    120.681861,
                    23.960535
                ]
            }
        },
        {
            "type": "Feature",
            "properties": {
                "id": "0938040012",
                "name": "竹山秀傳醫療社團法人竹山秀傳醫院",
                "phone": "049-2624266",
                "address": "南投縣竹山鎮集山路2段75號",
                "service_periods": "NNNNNNNNNNNNYYNNNNNYY"
            },
            "geometry": {
                "type": "Point",
                "coordinates": [
                    120.714117,
                    23.800149
                ]
            }
        },
        {
            "type": "Feature",
            "properties": {
                "id": "1138020015",
                "name": "埔基醫療財團法人埔里基督教醫院",
                "phone": "049-2912151",
                "address": "南投縣埔里鎮愛蘭里鐵山路1號",
                "service_periods": "NNNNNNNNNNNNNNNNNNNNN"
            },
            "geometry": {
                "type": "Point",
                "coordinates": [
                    120.946799,
                    23.970928
                ]
            }
        },
        {
            "type": "Feature",
            "properties": {
                "id": "0439010518",
                "name": "國立臺灣大學醫學院附設醫院雲林分院",
                "phone": "05 -5323911",
                "address": "雲林縣斗六市雲林路二段579號",
                "service_periods": "NNNNNYYNNNNNYYNNNNYYY"
            },
            "geometry": {
                "type": "Point",
                "coordinates": [
                    120.525929,
                    23.697662
                ]
            }
        },
        {
            "type": "Feature",
            "properties": {
                "id": "1139030015",
                "name": "天主教若瑟醫療財團法人若瑟醫院",
                "phone": "05 -6337333",
                "address": "雲林縣虎尾鎮新生路74號",
                "service_periods": "NNNNNNYNNNNNYYNNNNNYY"
            },
            "geometry": {
                "type": "Point",
                "coordinates": [
                    120.437886,
                    23.708214
                ]
            }
        },
        {
            "type": "Feature",
            "properties": {
                "id": "1139040011",
                "name": "彰化基督教醫療財團法人雲林基督教醫院",
                "phone": "05 -5871111",
                "address": "雲林縣西螺鎮新豐里市場南路371、375號",
                "service_periods": "NNNNNNYNNNNNYYYYYYYYY"
            },
            "geometry": {
                "type": "Point",
                "coordinates": [
                    120.441292,
                    23.780235
                ]
            }
        },
        {
            "type": "Feature",
            "properties": {
                "id": "1139130010",
                "name": "長庚醫療財團法人雲林長庚紀念醫院",
                "phone": "05 -6915151",
                "address": "雲林縣麥寮鄉中興村工業路1500號",
                "service_periods": "NNNNNNYNNNNNYYNYNNYYY"
            },
            "geometry": {
                "type": "Point",
                "coordinates": [
                    120.218341,
                    23.795183
                ]
            }
        },
        {
            "type": "Feature",
            "properties": {
                "id": "1339060017",
                "name": "中國醫藥大學北港附設醫院",
                "phone": "05 -7837901",
                "address": "雲林縣北港鎮新街里新德路123號",
                "service_periods": "NNNNNNYNNNNNYYNNNNNYY"
            },
            "geometry": {
                "type": "Point",
                "coordinates": [
                    120.30782,
                    23.591763
                ]
            }
        },
        {
            "type": "Feature",
            "properties": {
                "id": "0140010028",
                "name": "衛生福利部朴子醫院",
                "phone": "05 -3790600",
                "address": "嘉義縣朴子市永和里42－50號",
                "service_periods": "NNNNNNNNNNNNYYNYNYYYY"
            },
            "geometry": {
                "type": "Point",
                "coordinates": [
                    120.234634,
                    23.464433
                ]
            }
        },
        {
            "type": "Feature",
            "properties": {
                "id": "0640140012",
                "name": "臺中榮民總醫院灣橋分院",
                "phone": "05 -2791072",
                "address": "嘉義縣竹崎鄉灣橋村石麻園38號",
                "service_periods": "NNNNNNYNNNNNYYYYYYYYY"
            },
            "geometry": {
                "type": "Point",
                "coordinates": [
                    120.506379,
                    23.48778
                ]
            }
        },
        {
            "type": "Feature",
            "properties": {
                "id": "1140010510",
                "name": "長庚醫療財團法人嘉義長庚紀念醫院",
                "phone": "05 -3621000",
                "address": "嘉義縣朴子市仁和里長庚一路6號",
                "service_periods": "NNNNNNYNNNNNYYNNNNNYY"
            },
            "geometry": {
                "type": "Point",
                "coordinates": [
                    120.284043,
                    23.464805
                ]
            }
        },
        {
            "type": "Feature",
            "properties": {
                "id": "0122020517",
                "name": "衛生福利部嘉義醫院",
                "phone": "05 -2319090",
                "address": "嘉義市西區福全里北港路312號",
                "service_periods": "NNNNNNYNNNNNYYNNNNNYY"
            },
            "geometry": {
                "type": "Point",
                "coordinates": [
                    120.4308,
                    23.479849
                ]
            }
        },
        {
            "type": "Feature",
            "properties": {
                "id": "0622020017",
                "name": "臺中榮民總醫院嘉義分院",
                "phone": "05 -2359630",
                "address": "嘉義市西區劉厝里世賢路2段600號",
                "service_periods": "NNNNNNYNNNNNYYYYYNYYY"
            },
            "geometry": {
                "type": "Point",
                "coordinates": [
                    120.42297,
                    23.467549
                ]
            }
        },
        {
            "type": "Feature",
            "properties": {
                "id": "1122010012",
                "name": "戴德森醫療財團法人嘉義基督教醫院",
                "phone": "05 -2765041",
                "address": "嘉義市東區中庄里忠孝路539號",
                "service_periods": "NNNNNNNNNNNNNNNNNNNNN"
            },
            "geometry": {
                "type": "Point",
                "coordinates": [
                    120.45005,
                    23.4994
                ]
            }
        },
        {
            "type": "Feature",
            "properties": {
                "id": "1122010021",
                "name": "天主教中華聖母修女會醫療財團法人天主教聖馬爾定醫院",
                "phone": "05 -2756000",
                "address": "嘉義市東區大雅路二段565號",
                "service_periods": "NNNNNNYNNNNNYYNNNNNYY"
            },
            "geometry": {
                "type": "Point",
                "coordinates": [
                    120.4671,
                    23.47568
                ]
            }
        },
        {
            "type": "Feature",
            "properties": {
                "id": "0121050011",
                "name": "衛生福利部臺南醫院",
                "phone": "06 -2200055",
                "address": "臺南市中西區中山路125號",
                "service_periods": "NNNNNNYNNNNNYYNNNNNYY"
            },
            "geometry": {
                "type": "Point",
                "coordinates": [
                    120.209228,
                    22.995819
                ]
            }
        },
        {
            "type": "Feature",
            "properties": {
                "id": "0141010013",
                "name": "衛生福利部新營醫院",
                "phone": "06 -6351131",
                "address": "臺南市新營區信義街73號",
                "service_periods": "NNNNNNYNNNNNYYNNNYYYY"
            },
            "geometry": {
                "type": "Point",
                "coordinates": [
                    120.313481,
                    23.30908
                ]
            }
        },
        {
            "type": "Feature",
            "properties": {
                "id": "0141060513",
                "name": "衛生福利部臺南醫院新化分院",
                "phone": "06 -5911929",
                "address": "臺南市新化區那拔里牧場72號",
                "service_periods": "NNNNNYYNNNNNYYYYYYYYY"
            },
            "geometry": {
                "type": "Point",
                "coordinates": [
                    120.336408,
                    23.062491
                ]
            }
        },
        {
            "type": "Feature",
            "properties": {
                "id": "0141270019",
                "name": "胸腔病院",
                "phone": "06 -2705911",
                "address": "臺南市仁德區中山路864號",
                "service_periods": "NNNNNNYNNNNNYYNNNNNYY"
            },
            "geometry": {
                "type": "Point",
                "coordinates": [
                    120.241802,
                    22.975462
                ]
            }
        },
        {
            "type": "Feature",
            "properties": {
                "id": "0421040011",
                "name": "國立成功大學醫學院附設醫院",
                "phone": "06 -2353535",
                "address": "臺南市北區勝利路138號",
                "service_periods": "NNNNNYYNNNNNYYYYYYYYY"
            },
            "geometry": {
                "type": "Point",
                "coordinates": [
                    120.21923,
                    23.00221
                ]
            }
        },
        {
            "type": "Feature",
            "properties": {
                "id": "0641310018",
                "name": "高雄榮民總醫院臺南分院",
                "phone": "06 -3125101",
                "address": "臺南市永康區復興里復興路427號",
                "service_periods": "NNNNNNYNNNNNYYNYNYYYY"
            },
            "geometry": {
                "type": "Point",
                "coordinates": [
                    120.240316,
                    22.997218
                ]
            }
        },
        {
            "type": "Feature",
            "properties": {
                "id": "0905320023",
                "name": "台南市立醫院(委託秀傳醫療社團法人經營)",
                "phone": "06 -2609926",
                "address": "臺南市東區崇德路670號",
                "service_periods": "NNNNNNYNNNNNYYNNNNNYY"
            },
            "geometry": {
                "type": "Point",
                "coordinates": [
                    120.226743,
                    22.968534
                ]
            }
        },
        {
            "type": "Feature",
            "properties": {
                "id": "1105050012",
                "name": "奇美醫療財團法人佳里奇美醫院",
                "phone": "06 -7263333",
                "address": "臺南市佳里區佳興里佳里興606號",
                "service_periods": "NNNNNNYNNNNNYYNNNNNYY"
            },
            "geometry": {
                "type": "Point",
                "coordinates": [
                    120.183662,
                    23.181698
                ]
            }
        },
        {
            "type": "Feature",
            "properties": {
                "id": "1141090512",
                "name": "奇美醫療財團法人柳營奇美醫院",
                "phone": "06 -6226999",
                "address": "臺南市柳營區太康里201號",
                "service_periods": "NNNNNNYNNNNNYYNYNNNYY"
            },
            "geometry": {
                "type": "Point",
                "coordinates": [
                    120.324704,
                    23.289269
                ]
            }
        },
        {
            "type": "Feature",
            "properties": {
                "id": "1141310019",
                "name": "奇美醫療財團法人奇美醫院",
                "phone": "06 -2812811",
                "address": "臺南市永康區中華路901號",
                "service_periods": "NNNNNNYNNNNNYYNNNNNYY"
            },
            "geometry": {
                "type": "Point",
                "coordinates": [
                    120.221897,
                    23.020606
                ]
            }
        },
        {
            "type": "Feature",
            "properties": {
                "id": "1305370013",
                "name": "臺南市立安南醫院-委託中國醫藥大學興建經營",
                "phone": "06 -3553111",
                "address": "臺南市安南區長和路二段66號",
                "service_periods": "NNNNNNYNNNNNYYNNNNNYY"
            },
            "geometry": {
                "type": "Point",
                "coordinates": [
                    120.223192,
                    23.064232
                ]
            }
        },
        {
            "type": "Feature",
            "properties": {
                "id": "0102020011",
                "name": "高雄市立聯合醫院",
                "phone": "07 -5552565",
                "address": "高雄市鼓山區中華一路976號",
                "service_periods": "NNNNNNYNNNNNYYNNNNNYY"
            },
            "geometry": {
                "type": "Point",
                "coordinates": [
                    120.291698,
                    22.654924
                ]
            }
        },
        {
            "type": "Feature",
            "properties": {
                "id": "0102070020",
                "name": "高雄市立大同醫院(委託財團法人私立高雄醫學大學附設中和紀念醫院經營)",
                "phone": "07 -2911101",
                "address": "高雄市前金區中華三路68號",
                "service_periods": "NNNNNNYNNNNNYYNNNNNYY"
            },
            "geometry": {
                "type": "Point",
                "coordinates": [
                    120.297205,
                    22.626989
                ]
            }
        },
        {
            "type": "Feature",
            "properties": {
                "id": "0102080017",
                "name": "高雄市立民生醫院",
                "phone": "07 -7511131",
                "address": "高雄市苓雅區凱旋二路134號",
                "service_periods": "NNNNNNYNNNNNYYNNNNNYY"
            },
            "geometry": {
                "type": "Point",
                "coordinates": [
                    120.323736,
                    22.626491
                ]
            }
        },
        {
            "type": "Feature",
            "properties": {
                "id": "0142030019",
                "name": "衛生福利部旗山醫院",
                "phone": "07 -6613811",
                "address": "高雄市旗山區大德里中學路60號",
                "service_periods": "NNNNNNYNNNNNYYNNNNNYY"
            },
            "geometry": {
                "type": "Point",
                "coordinates": [
                    120.483277,
                    22.880693
                ]
            }
        },
        {
            "type": "Feature",
            "properties": {
                "id": "0502030015",
                "name": "國軍高雄總醫院左營分院附設民眾診療服務處",
                "phone": "07 -5817121",
                "address": "高雄市左營區合群里軍校路553號",
                "service_periods": "NNNNNNYNNNNNYYNNYNYYY"
            },
            "geometry": {
                "type": "Point",
                "coordinates": [
                    120.292231,
                    22.700351
                ]
            }
        },
        {
            "type": "Feature",
            "properties": {
                "id": "0502080015",
                "name": "國軍高雄總醫院附設民眾診療服務處",
                "phone": "07 -7496751",
                "address": "高雄市苓雅區建軍路5號",
                "service_periods": "NNNNNNYNNNNNYYNNNNNYY"
            },
            "geometry": {
                "type": "Point",
                "coordinates": [
                    120.342027,
                    22.627051
                ]
            }
        },
        {
            "type": "Feature",
            "properties": {
                "id": "0602030026",
                "name": "高雄榮民總醫院",
                "phone": "07 -3422121",
                "address": "高雄市左營區大中一路386號",
                "service_periods": "NNNNNYYNNNNNYYNNNNNYY"
            },
            "geometry": {
                "type": "Point",
                "coordinates": [
                    120.322256,
                    22.677696
                ]
            }
        },
        {
            "type": "Feature",
            "properties": {
                "id": "0902080013",
                "name": "阮綜合醫療社團法人阮綜合醫院",
                "phone": "07 -3351121",
                "address": "高雄市苓雅區成功一路162號",
                "service_periods": "NNNNNNYNNNNNYYNNNNNYY"
            },
            "geometry": {
                "type": "Point",
                "coordinates": [
                    120.297377,
                    22.615583
                ]
            }
        },
        {
            "type": "Feature",
            "properties": {
                "id": "1102110011",
                "name": "高雄市立小港醫院(委託財團法人私立高雄醫學大學經營)",
                "phone": "07 -8036783",
                "address": "高雄市小港區山明里山明路482號",
                "service_periods": "NNNNNNYNNNNNYYNNNNNYY"
            },
            "geometry": {
                "type": "Point",
                "coordinates": [
                    120.363369,
                    22.567467
                ]
            }
        },
        {
            "type": "Feature",
            "properties": {
                "id": "1107120017",
                "name": "義大醫療財團法人義大癌治療醫院",
                "phone": "07 -6150022",
                "address": "高雄市燕巢區角宿里義大路21號",
                "service_periods": "NNNNNNYNNNNNYYYYYYYYY"
            },
            "geometry": {
                "type": "Point",
                "coordinates": [
                    120.365844,
                    22.765915
                ]
            }
        },
        {
            "type": "Feature",
            "properties": {
                "id": "1142010518",
                "name": "高雄市立鳳山醫院（委託長庚醫療財團法人經營）",
                "phone": "07 -7418151",
                "address": "高雄市鳳山區經武路42號",
                "service_periods": "NNNNNNYNNNNNYYYYNYYYY"
            },
            "geometry": {
                "type": "Point",
                "coordinates": [
                    120.363086,
                    22.628564
                ]
            }
        },
        {
            "type": "Feature",
            "properties": {
                "id": "1142100017",
                "name": "長庚醫療財團法人高雄長庚紀念醫院",
                "phone": "07 -7317123",
                "address": "高雄市鳥松區大埤路123號",
                "service_periods": "NNNNNNYNNNNNYYNNNNNYY"
            },
            "geometry": {
                "type": "Point",
                "coordinates": [
                    120.356029,
                    22.649847
                ]
            }
        },
        {
            "type": "Feature",
            "properties": {
                "id": "1142120001",
                "name": "義大醫療財團法人義大醫院",
                "phone": "07 -6150011",
                "address": "高雄市燕巢區角宿里義大路1號",
                "service_periods": "NNNNNNYNNNNNYYNNNNNYY"
            },
            "geometry": {
                "type": "Point",
                "coordinates": [
                    120.364451,
                    22.765521
                ]
            }
        },
        {
            "type": "Feature",
            "properties": {
                "id": "1302050014",
                "name": "財團法人私立高雄醫學大學附設中和紀念醫院",
                "phone": "07 -3121101",
                "address": "高雄市三民區十全一路100號",
                "service_periods": "NNNNNNYNNNNNYYNNNNNYY"
            },
            "geometry": {
                "type": "Point",
                "coordinates": [
                    120.310001,
                    22.645178
                ]
            }
        },
        {
            "type": "Feature",
            "properties": {
                "id": "1502040021",
                "name": "健仁醫院",
                "phone": "07 -3517166",
                "address": "高雄市楠梓區中陽里楠陽路136號",
                "service_periods": "NNNNNNYNNNNNYYNNNNNYY"
            },
            "geometry": {
                "type": "Point",
                "coordinates": [
                    120.328988,
                    22.72362
                ]
            }
        },
        {
            "type": "Feature",
            "properties": {
                "id": "1542010052",
                "name": "大東醫院",
                "phone": "07 -7463762",
                "address": "高雄市鳳山區三民里光遠路171－2號",
                "service_periods": "NNNNNNNNNNNNNNNNNNNNN"
            },
            "geometry": {
                "type": "Point",
                "coordinates": [
                    120.362012,
                    22.625359
                ]
            }
        },
        {
            "type": "Feature",
            "properties": {
                "id": "1542050056",
                "name": "建佑醫院",
                "phone": "07 -6437901",
                "address": "高雄市林園區東林西路360，362號",
                "service_periods": "NNNNNNNNNNNNNNNNNNNNN"
            },
            "geometry": {
                "type": "Point",
                "coordinates": [
                    120.382264,
                    22.503663
                ]
            }
        },
        {
            "type": "Feature",
            "properties": {
                "id": "0143010011",
                "name": "衛生福利部屏東醫院",
                "phone": "08 -7363011",
                "address": "屏東縣屏東市自由路270號",
                "service_periods": "NNNNNNYNNNNNYYNNNNYYY"
            },
            "geometry": {
                "type": "Point",
                "coordinates": [
                    120.495546,
                    22.673264
                ]
            }
        },
        {
            "type": "Feature",
            "properties": {
                "id": "0643130018",
                "name": "高雄榮民總醫院屏東分院",
                "phone": "08 -7704115",
                "address": "屏東縣內埔鄉龍潭村昭勝路安平一巷1號",
                "service_periods": "NNNNNYYNNNNNYYYYNYYYY"
            },
            "geometry": {
                "type": "Point",
                "coordinates": [
                    120.599009,
                    22.674417
                ]
            }
        },
        {
            "type": "Feature",
            "properties": {
                "id": "0943010017",
                "name": "寶建醫療社團法人寶建醫院",
                "phone": "08 -7665995",
                "address": "屏東縣屏東市中山路119.123號",
                "service_periods": "NNNNNNYNNNNNYYNNNNNYY"
            },
            "geometry": {
                "type": "Point",
                "coordinates": [
                    120.483564,
                    22.693971
                ]
            }
        },
        {
            "type": "Feature",
            "properties": {
                "id": "0943020013",
                "name": "安泰醫療社團法人潮州安泰醫院",
                "phone": "08 -7800888",
                "address": "屏東縣潮州鎮三星里四維路162及193號",
                "service_periods": "NNNNNNYNNNNNNYNNNNNYY"
            },
            "geometry": {
                "type": "Point",
                "coordinates": [
                    120.547616,
                    22.55477
                ]
            }
        },
        {
            "type": "Feature",
            "properties": {
                "id": "0943030019",
                "name": "安泰醫療社團法人安泰醫院",
                "phone": "08 -8329966",
                "address": "屏東縣東港鎮興東里中正路一段210號",
                "service_periods": "NNNNNNYNNNNNYYNNNNNYY"
            },
            "geometry": {
                "type": "Point",
                "coordinates": [
                    120.459127,
                    22.474326
                ]
            }
        },
        {
            "type": "Feature",
            "properties": {
                "id": "0943040015",
                "name": "南門醫療社團法人南門醫院",
                "phone": "08 -8894568",
                "address": "屏東縣恆春鎮南門路10號",
                "service_periods": "NNNNNNYNNNNNNYNNNNNNY"
            },
            "geometry": {
                "type": "Point",
                "coordinates": [
                    120.745389,
                    22.000858
                ]
            }
        },
        {
            "type": "Feature",
            "properties": {
                "id": "0943160012",
                "name": "枋寮醫療社團法人枋寮醫院",
                "phone": "08 -8789991",
                "address": "屏東縣枋寮鄉安樂村中山路139號",
                "service_periods": "NNNNNNYNNNNNYYNNNNNYY"
            },
            "geometry": {
                "type": "Point",
                "coordinates": [
                    120.596293,
                    22.364024
                ]
            }
        },
        {
            "type": "Feature",
            "properties": {
                "id": "1143010012",
                "name": "屏基醫療財團法人屏東基督教醫院",
                "phone": "08 -7368686",
                "address": "屏東縣屏東市大連路60號",
                "service_periods": "NNNNNYYNNNNNYYNNNNNYY"
            },
            "geometry": {
                "type": "Point",
                "coordinates": [
                    120.502588,
                    22.682041
                ]
            }
        },
        {
            "type": "Feature",
            "properties": {
                "id": "1343030018",
                "name": "輔英科技大學附設醫院",
                "phone": "08 -8323146",
                "address": "屏東縣東港鎮興台里中山路5號",
                "service_periods": "NNNNNNYNNNNNYYNNNNNYY"
            },
            "geometry": {
                "type": "Point",
                "coordinates": [
                    120.452734,
                    22.465199
                ]
            }
        },
        {
            "type": "Feature",
            "properties": {
                "id": "1543010109",
                "name": "國仁醫院",
                "phone": "08 -7223000",
                "address": "屏東縣屏東市民生東路12－2號",
                "service_periods": "NNNNNNNNNNNNYYNNNNNYY"
            },
            "geometry": {
                "type": "Point",
                "coordinates": [
                    120.514591,
                    22.658297
                ]
            }
        },
        {
            "type": "Feature",
            "properties": {
                "id": "0434010518",
                "name": "國立陽明交通大學附設醫院",
                "phone": "03 -9325192",
                "address": "宜蘭縣宜蘭市校舍路169號",
                "service_periods": "NNNNNNYNNNNNYYNNNNNYY"
            },
            "geometry": {
                "type": "Point",
                "coordinates": [
                    121.75798,
                    24.750052
                ]
            }
        },
        {
            "type": "Feature",
            "properties": {
                "id": "0145010019",
                "name": "衛生福利部花蓮醫院",
                "phone": "03 -8358141",
                "address": "花蓮縣花蓮市中正路600號",
                "service_periods": "NNNNNYYNNNNNYYYYYYYYY"
            },
            "geometry": {
                "type": "Point",
                "coordinates": [
                    121.61118,
                    23.979479
                ]
            }
        },
        {
            "type": "Feature",
            "properties": {
                "id": "0545040515",
                "name": "國軍花蓮總醫院附設民眾診療服務處",
                "phone": "03 -8263151",
                "address": "花蓮縣新城鄉嘉里路163號",
                "service_periods": "NNNNNNYNNNNNYYNNNNYYY"
            },
            "geometry": {
                "type": "Point",
                "coordinates": [
                    121.6074,
                    24.024429
                ]
            }
        },
        {
            "type": "Feature",
            "properties": {
                "id": "0645020015",
                "name": "臺北榮民總醫院鳳林分院",
                "phone": "03 -8764539",
                "address": "花蓮縣鳳林鎮鳳信里中正路1段2號",
                "service_periods": "NNNNNYYNNNNNYYYYYYYYY"
            },
            "geometry": {
                "type": "Point",
                "coordinates": [
                    121.439215,
                    23.727428
                ]
            }
        },
        {
            "type": "Feature",
            "properties": {
                "id": "0645030011",
                "name": "臺北榮民總醫院玉里分院",
                "phone": "03 -8883141",
                "address": "花蓮縣玉里鎮泰昌里新興街91號",
                "service_periods": "NNNNNNNNNNNNNYNNNNNYY"
            },
            "geometry": {
                "type": "Point",
                "coordinates": [
                    121.312031,
                    23.339213
                ]
            }
        },
        {
            "type": "Feature",
            "properties": {
                "id": "1145010010",
                "name": "佛教慈濟醫療財團法人花蓮慈濟醫院",
                "phone": "03 -8561825",
                "address": "花蓮縣花蓮市中央路3段707號",
                "service_periods": "NNNNNNYNNNNNYYNNNNNYY"
            },
            "geometry": {
                "type": "Point",
                "coordinates": [
                    121.592282,
                    23.995729
                ]
            }
        },
        {
            "type": "Feature",
            "properties": {
                "id": "1145030012",
                "name": "佛教慈濟醫療財團法人玉里慈濟醫院",
                "phone": "03 -8882718",
                "address": "花蓮縣玉里鎮民權街1－1號",
                "service_periods": "NNNNNNNNNNNNYNNNNNNYY"
            },
            "geometry": {
                "type": "Point",
                "coordinates": [
                    121.318526,
                    23.334662
                ]
            }
        },
        {
            "type": "Feature",
            "properties": {
                "id": "0146010013",
                "name": "衛生福利部臺東醫院",
                "phone": "089-324112",
                "address": "臺東縣臺東市五權街1號",
                "service_periods": "NNNNNYNNNNNNYYYYYYYYY"
            },
            "geometry": {
                "type": "Point",
                "coordinates": [
                    121.150649,
                    22.757025
                ]
            }
        },
        {
            "type": "Feature",
            "properties": {
                "id": "0144010015",
                "name": "衛生福利部澎湖醫院",
                "phone": "06 -9261151",
                "address": "澎湖縣馬公市啟明里中正路10號",
                "service_periods": "NNNNNNNNNNNNNYYYYYYYY"
            },
            "geometry": {
                "type": "Point",
                "coordinates": [
                    119.565423,
                    23.564553
                ]
            }
        },
        {
            "type": "Feature",
            "properties": {
                "id": "0544010031",
                "name": "三軍總醫院澎湖分院附設民眾診療服務處",
                "phone": "06 -9211116",
                "address": "澎湖縣馬公市前寮里90號",
                "service_periods": "NNNNNYYNNNNNYYYYYYYYY"
            },
            "geometry": {
                "type": "Point",
                "coordinates": [
                    119.583681,
                    23.554615
                ]
            }
        },
        {
            "type": "Feature",
            "properties": {
                "id": "0291010010",
                "name": "連江縣立醫院",
                "phone": "083-623995",
                "address": "連江縣南竿鄉復興村217號",
                "service_periods": "NNNNNNYNNNNNYYYYYYYYY"
            },
            "geometry": {
                "type": "Point",
                "coordinates": [
                    119.949168,
                    26.160844
                ]
            }
        },
        {
            "type": "Feature",
            "properties": {
                "id": "0190030516",
                "name": "衛生福利部金門醫院",
                "phone": "082-332546",
                "address": "金門縣金湖鎮復興路2號",
                "service_periods": "NNNNNNYNNNNNYYNNNNYYY"
            },
            "geometry": {
                "type": "Point",
                "coordinates": [
                    118.418001,
                    24.440588
                ]
            }
        }
    ]
}